City_ID,City,Lat,Lng,Max Temp,Humidity,Cloudiness,Wind Speed,Country,Date
0,holualoa,19.6228,-155.9522,78.84,75,0,0.0,US,1729883146
1,bilibino,68.0546,166.4372,0.64,92,100,2.91,RU,1729883290
2,adamstown,-25.066,-130.1015,69.24,75,100,17.13,PN,1729883291
3,choibalsan,48.0667,114.5,32.22,41,100,4.61,MN,1729883293
4,ocean shores,46.9737,-124.1563,55.02,68,0,18.41,US,1729883294
5,yuzhno-kurilsk,44.0306,145.8556,52.11,87,0,8.1,RU,1729883295
6,jamestown,42.097,-79.2353,58.01,53,100,8.05,US,1729883296
7,weno,7.4515,151.8468,82.35,83,100,0.0,FM,1729883297
8,tucuma,-0.1833,-50.05,87.39,60,74,9.46,BR,1729883298
9,tolanaro,-25.0319,46.9987,70.7,85,100,5.37,MG,1729883300
10,port-aux-francais,-49.35,70.2167,36.05,67,48,23.09,TF,1729883301
11,pemangkat,1.1667,108.9667,81.88,80,100,11.14,ID,1729883220
12,olonkinbyen,70.9221,-8.7187,29.19,64,100,19.22,SJ,1729883303
13,east grand forks,47.93,-97.0245,55.63,38,20,17.27,US,1729883304
14,tineo,43.3376,-6.4145,39.54,94,6,4.25,ES,1729883305
15,tofol,5.3248,163.0078,83.89,64,17,8.43,FM,1729883307
16,ushuaia,-54.8,-68.3,40.66,81,75,37.98,AR,1729883285
17,sisimiut,66.9395,-53.6735,30.4,85,100,23.06,GL,1729883309
18,grytviken,-54.2811,-36.5092,34.79,100,100,7.2,GS,1729883310
19,port elizabeth,-33.918,25.5701,60.31,96,63,3.0,ZA,1729883311
20,belmonte,-15.8631,-38.8828,79.34,74,100,12.59,BR,1729883312
21,kichmengskiy gorodok,59.9816,45.7854,40.69,86,100,7.49,RU,1729883313
22,yellowknife,62.456,-114.3525,30.42,83,31,1.01,CA,1729883315
23,hirara,24.8,125.2833,82.22,80,100,22.28,JP,1729883316
24,guerrero negro,27.9769,-114.0611,75.07,47,6,11.99,MX,1729883154
25,portel,-1.9356,-50.8211,92.82,45,87,5.97,BR,1729883318
26,port alfred,-33.5906,26.891,61.18,85,39,5.01,ZA,1729883319
27,tchintabaraden,15.8969,5.7985,90.01,11,100,9.31,NE,1729883321
28,afaahiti,-17.75,-149.2833,74.25,80,100,25.64,PF,1729883322
29,saldanha,-33.0117,17.9442,59.05,84,0,21.88,ZA,1729883323
30,margaret river,-33.95,115.0667,51.44,75,0,8.05,AU,1729883324
31,puerto ayora,-0.7393,-90.3518,71.55,90,72,8.99,EC,1729883325
32,blackmans bay,-43.0167,147.3167,38.52,90,8,6.87,AU,1729883327
33,thunder bay,48.4001,-89.3168,50.76,45,71,12.8,CA,1729883328
34,anna regina,7.2644,-58.5077,84.72,67,6,9.51,GY,1729883329
35,tenno,39.9,139.9667,55.72,75,100,5.7,JP,1729883330
36,tura,25.5198,90.2201,73.49,82,100,3.58,IN,1729883332
37,chayan,43.0297,69.3772,57.92,45,100,10.25,KZ,1729883333
38,miro khan,27.7599,68.0921,85.15,21,0,1.45,PK,1729883335
39,edinburgh of the seven seas,-37.0676,-12.3116,54.61,66,100,12.46,SH,1729883337
40,krasnyy yar,46.5331,48.3456,45.72,74,100,6.22,RU,1729883338
41,klyuchi,52.2667,79.1667,45.28,69,100,6.87,RU,1729883339
42,alaghsas,17.0187,8.0168,87.69,16,0,9.22,NE,1729883104
43,avarua,-21.2078,-159.775,72.5,78,100,25.12,CK,1729883342
44,nabire,-3.3667,135.4833,75.88,89,77,3.09,ID,1729883343
45,stanley,54.868,-1.6985,51.82,98,100,2.3,GB,1729883345
46,puerto natales,-51.7236,-72.4875,45.05,76,100,32.21,CL,1729883346
47,chonchi,-42.6128,-73.8092,54.95,49,93,7.54,CL,1729883347
48,sima,53.9202,102.0442,31.21,88,100,6.29,RU,1729883348
49,ust-nera,64.5667,143.2,8.01,97,100,6.67,RU,1729883350
50,atar,20.5169,-13.0499,88.47,16,18,11.39,MR,1729883351
51,isafjordur,66.0755,-23.124,33.64,76,22,15.14,IS,1729883352
52,esmeralda,21.8525,-78.1169,85.14,55,86,12.06,CU,1729883353
53,papatowai,-46.5619,169.4708,43.66,74,100,10.56,NZ,1729883355
54,darwin,-12.4611,130.8418,80.58,83,100,5.75,AU,1729883356
55,puerto baquerizo moreno,-0.9,-89.6,74.39,69,100,13.8,EC,1729883357
56,mejit,10.2753,170.8646,80.64,81,100,11.56,MH,1729883358
57,fale old settlement,-9.3852,-171.2468,83.32,78,16,20.4,TK,1729883359
58,selfoss,63.9331,-20.9971,37.04,70,84,22.53,IS,1729883361
59,ifrane,33.3333,-5.25,52.25,86,70,9.04,MA,1729883362
60,waitangi,-43.9535,-176.5597,55.81,98,84,1.01,NZ,1729883363
61,iqaluit,63.7506,-68.5145,24.15,83,90,6.82,CA,1729883364
62,stadskanaal,52.9833,6.95,53.19,96,14,1.01,NL,1729883365
63,san patricio,28.017,-97.5169,89.55,43,0,11.65,US,1729883367
64,hamilton,39.1834,-84.5333,75.2,54,75,9.22,US,1729883368
65,whitehorse,60.7161,-135.0538,24.03,92,99,5.01,CA,1729883369
66,colon,9.3592,-79.9014,85.08,86,100,5.01,PA,1729883370
67,west island,-12.1568,96.8225,78.78,73,20,9.22,CC,1729883371
68,tiksi,71.6872,128.8694,-6.97,100,82,3.83,RU,1729883319
69,la gi,10.6667,107.7833,76.23,82,100,10.11,VN,1729883374
70,gadzhiyevo,69.2551,33.3362,45.82,81,100,23.35,RU,1729883375
71,kalianget,-7.05,113.9333,82.85,73,0,2.95,ID,1729883376
72,tarawa,1.419,172.984,82.49,83,75,3.44,KI,1729883377
73,albany,42.6001,-73.9662,59.65,51,8,3.0,US,1729883142
74,bredasdorp,-34.5322,20.0403,55.9,89,0,4.07,ZA,1729883379
75,vorgashor,67.5833,63.95,13.82,96,29,3.09,RU,1729883381
76,ribeira grande,38.5167,-28.7,65.77,63,75,6.91,PT,1729883382
77,bethel,41.3712,-73.414,62.29,40,0,4.61,US,1729883383
78,invercargill,-46.4,168.35,45.01,82,100,7.0,NZ,1729883384
79,byron bay,-28.65,153.6167,61.84,80,78,8.16,AU,1729883386
80,tsagan aman,47.5639,46.7218,46.92,79,100,5.46,RU,1729883387
81,utrik,11.2278,169.8474,81.07,81,100,15.46,MH,1729883388
82,bemidji,47.4736,-94.8803,53.19,40,0,23.02,US,1729883117
83,hermanus,-34.4187,19.2345,59.81,83,0,10.51,ZA,1729883209
84,itanhem,-17.1664,-40.33,92.73,40,100,9.93,BR,1729883391
85,san julian,21.0167,-102.1667,76.89,23,0,8.1,MX,1729883393
86,crane,31.3974,-102.3501,76.41,30,3,9.82,US,1729883394
87,ciudad bolivar,8.1222,-63.5497,91.63,46,100,4.03,VE,1729883395
88,sigli,5.3848,95.9609,79.7,76,71,5.14,ID,1729883396
89,camana,-16.6228,-72.7111,67.53,75,24,9.19,PE,1729883397
90,newport,51.5877,-2.9984,56.44,84,71,7.29,GB,1729883198
91,eyl,7.9803,49.8164,80.13,81,29,8.25,SO,1729883373
92,brookings,44.3114,-96.7984,53.6,53,0,9.22,US,1729883396
93,coxen hole,16.3244,-86.5366,81.68,89,40,6.91,HN,1729883234
94,qaqortoq,60.7167,-46.0333,31.68,68,0,26.17,GL,1729883403
95,aykhal,66.0,111.5,5.63,95,100,5.35,RU,1729883244
96,thompson,55.7435,-97.8558,35.73,63,3,10.0,CA,1729883406
97,mili,6.0815,171.735,82.33,76,11,6.02,MH,1729883407
98,anadyr,64.75,177.4833,27.1,86,75,20.13,RU,1729883408
99,carnarvon,-24.8667,113.6333,65.88,72,0,25.34,AU,1729883409
100,woolgoolga,-30.1106,153.2007,58.87,81,54,12.75,AU,1729883410
101,myitkyina,25.3833,97.4,67.48,92,14,2.77,MM,1729883412
102,karlskrona,56.1616,15.5866,50.45,92,3,5.66,SE,1729883405
103,morris,40.8334,-74.5329,63.73,37,20,6.91,US,1729883414
104,college,64.8569,-147.8028,12.15,85,40,0.0,US,1729883415
105,port lincoln,-34.7333,135.8667,58.8,82,100,12.64,AU,1729883416
106,port mathurin,-19.6833,63.4167,74.28,89,100,20.62,MU,1729883418
107,maslyanino,54.3436,84.2111,46.06,73,100,14.61,RU,1729883419
108,philadelphia,39.9523,-75.1638,66.06,36,0,10.36,US,1729882564
109,wanning,18.8003,110.3967,75.56,59,100,15.95,CN,1729883421
110,al bahah,20.0129,41.4677,63.72,62,19,6.55,SA,1729883353
111,kargasok,59.0556,80.8572,38.62,94,100,4.88,RU,1729883424
112,petropavlovsk-kamchatsky,53.0452,158.6483,32.59,60,0,6.71,RU,1729883425
113,bandon,51.7469,-8.7425,53.19,90,85,16.93,IE,1729883426
114,calvinia,-31.4707,19.776,64.02,23,0,5.55,ZA,1729883427
115,phan rang-thap cham,11.5667,108.9833,74.93,94,100,4.23,VN,1729883428
116,ola,59.5833,151.2833,22.82,92,97,4.72,RU,1729883430
117,angaur state,6.906,134.13,83.44,73,100,25.23,PW,1729883335
118,new norfolk,-42.7826,147.0587,39.7,97,16,2.82,AU,1729883433
119,road town,18.4167,-64.6167,89.64,66,20,6.91,VG,1729883406
120,pleasanton,37.6624,-121.8747,72.75,40,100,0.63,US,1729883436
121,atafu village,-8.5421,-172.5159,82.81,78,23,17.49,TK,1729883438
122,barra de sao francisco,-18.755,-40.8908,90.91,41,100,5.26,BR,1729883439
123,ugoofaaru,5.6667,73.0,81.18,84,100,13.82,MV,1729883440
124,sampit,-2.5333,112.95,74.17,98,100,0.96,ID,1729883441
125,yanbu,24.0891,38.0637,87.84,51,40,0.0,SA,1729883443
126,carupano,10.6678,-63.2585,87.78,61,100,11.92,VE,1729883444
127,wailua homesteads,22.0669,-159.378,79.59,83,20,8.05,US,1729883445
128,anderson,34.5334,-82.6499,81.79,34,0,4.61,US,1729883282
129,portland,45.5234,-122.6762,61.81,49,75,14.97,US,1729882587
130,oranjemund,-28.55,16.4333,56.93,88,72,16.75,NA,1729883407
131,saudarkrokur,65.7461,-19.6394,35.2,88,34,15.41,IS,1729883449
132,greenville,35.6127,-77.3663,74.14,38,0,0.0,US,1729883441
133,hammerfest,70.6634,23.6821,41.45,81,40,43.73,NO,1729883452
134,vilyuysk,63.7553,121.6247,-6.23,100,92,2.66,RU,1729883453
135,baiquan,47.5833,126.0833,33.96,61,100,6.4,CN,1729883455
136,hawaiian paradise park,19.5933,-154.9731,76.87,95,100,6.91,US,1729883456
137,kotovsk,47.7531,29.532,46.56,64,12,5.17,UA,1729883457
138,newman,37.3138,-121.0208,73.96,24,100,3.22,US,1729883458
139,san fernando del valle de catamarca,-28.4696,-65.7852,76.77,41,10,30.02,AR,1729883266
140,nova sintra,14.8667,-24.7167,80.73,78,99,17.74,CV,1729883461
141,fisterra,42.9049,-9.2629,58.6,65,88,16.11,ES,1729883462
142,manakara,-22.1333,48.0167,71.65,88,66,6.87,MG,1729883463
143,zyryanovsk,49.7386,84.2719,41.81,91,100,3.8,KZ,1729883464
144,farsan,32.2569,50.561,45.19,19,0,0.81,IR,1729883465
145,papao,-17.75,-149.55,78.48,82,100,28.19,PF,1729883467
146,keflavik,64.0049,-22.5624,41.43,75,75,26.46,IS,1729883354
147,enewetak,11.3474,162.3373,79.18,92,100,24.94,MH,1729883469
148,ghadamis,30.1337,9.5007,82.13,21,100,9.57,LY,1729883470
149,puerto carreno,6.189,-67.4859,92.3,52,100,4.38,CO,1729883471
150,kill devil hills,36.0307,-75.676,67.98,53,0,4.61,US,1729883324
151,ilulissat,69.2167,-51.1,32.02,59,100,19.57,GL,1729883474
152,tadine,-21.55,167.8833,74.26,86,76,3.38,NC,1729883475
153,el granada,37.5027,-122.4694,71.42,51,0,0.0,US,1729883476
154,savanna-la-mar,18.219,-78.1332,85.93,72,32,1.28,JM,1729883477
155,aban,56.67,96.06,43.16,88,100,14.99,RU,1729883478
156,misratah,32.3754,15.0925,72.84,55,100,13.6,LY,1729883480
157,igarka,67.4667,86.5833,18.32,95,100,7.02,RU,1729883481
158,port-gentil,-0.7193,8.7815,78.67,84,93,11.77,GA,1729883482
159,udachny,66.4167,112.4,-4.43,100,99,3.65,RU,1729883483
160,saipan,15.1355,145.701,83.1,78,100,11.5,MP,1729883484
161,zaozersk,69.4005,32.4476,44.49,81,100,25.34,RU,1729883485
162,el paujil,1.5701,-75.3286,93.74,35,47,7.72,CO,1729883487
163,naze,28.3667,129.4833,76.78,85,100,12.19,JP,1729883488
164,hasaki,35.7333,140.8333,70.21,68,100,14.14,JP,1729883491
165,santa rosalia,27.3167,-112.2833,88.74,22,2,5.41,MX,1729883492
166,belaya glina,46.07,40.86,48.67,70,90,10.51,RU,1729883493
167,prince rupert,54.3161,-130.3201,47.89,72,0,12.66,CA,1729883477
168,phanat nikhom,13.4458,101.1844,78.98,86,90,4.45,TH,1729883495
169,manggar,-2.8833,108.2667,78.66,85,82,4.99,ID,1729883497
170,toliara,-23.35,43.6667,76.1,76,4,5.53,MG,1729883498
171,rosarito,32.3333,-117.0333,72.52,66,1,5.26,MX,1729883399
172,olyokminsk,60.3736,120.4264,11.95,98,82,2.53,RU,1729883502
173,port saint john's,-31.6229,29.5448,65.62,71,100,11.77,ZA,1729883503
174,vegreville,53.5001,-112.0518,43.97,38,16,9.31,CA,1729883264
175,abeche,13.8292,20.8324,85.82,19,15,11.3,TD,1729883506
176,prince george,53.9166,-122.753,36.63,84,100,3.0,CA,1729883337
177,dudinka,69.4058,86.1778,-4.18,96,14,6.08,RU,1729883509
178,urangan,-25.3,152.9,70.9,69,63,10.42,AU,1729883510
179,merizo village,13.2658,144.6691,81.16,91,99,11.65,GU,1729883511
180,mangrol,21.1167,70.1167,82.69,59,4,5.79,IN,1729883512
181,muisne,0.6,-80.0333,78.1,76,93,11.86,EC,1729883513
182,akom ii,2.7833,10.5667,70.29,99,99,2.06,CM,1729883514
183,kavaratti,10.5669,72.642,81.95,82,43,5.37,IN,1729883516
184,thakhek,17.4103,104.8307,67.42,59,100,3.31,LA,1729883517
185,tindouf,27.6711,-8.1474,82.85,20,0,8.05,DZ,1729883518
186,lihue,21.9789,-159.3672,80.19,69,20,8.05,US,1729883519
187,salta,-24.7859,-65.4117,85.57,37,9,7.0,AR,1729883318
188,uturoa,-16.7333,-151.4333,78.64,76,100,23.67,PF,1729883522
189,talnakh,69.4865,88.3972,-0.2,88,4,2.37,RU,1729883523
190,kodiak,57.79,-152.4072,44.11,87,100,12.66,US,1729883524
191,huai'an,33.5886,119.0192,56.98,94,86,7.67,CN,1729883525
192,ambalangoda,6.2355,80.0538,83.98,84,60,4.03,LK,1729883526
193,sen monorom,12.45,107.2,65.39,88,100,2.17,KH,1729883528
194,longyearbyen,78.2186,15.6401,37.24,75,75,4.61,SJ,1729883529
195,khandyga,62.6667,135.6,13.5,95,100,4.97,RU,1729883311
196,kovdor,67.5662,30.4758,42.69,87,100,13.6,RU,1729883532
197,kerikeri,-35.2268,173.9474,64.9,93,100,13.0,NZ,1729883533
198,vallenar,-28.5708,-70.7581,80.58,19,0,10.83,CL,1729883535
199,antalaha,-14.9003,50.2788,72.37,90,12,6.35,MG,1729883536
200,east london,-33.0153,27.9116,62.11,76,68,14.03,ZA,1729883378
201,huaiyuan chengguanzhen,32.9589,117.1657,56.86,96,15,6.82,CN,1729883539
202,pontianak,-0.0333,109.3333,78.78,94,100,2.3,ID,1729883540
203,georgetown,5.4112,100.3354,76.95,93,20,3.44,MY,1729883541
204,ulladulla,-35.35,150.4667,43.61,57,1,7.23,AU,1729883542
205,koupela,12.1794,-0.3517,89.82,26,100,7.54,BF,1729883543
206,sile,41.1754,29.6133,57.29,71,0,10.56,TR,1729883544
207,decatur,39.8403,-88.9548,66.25,72,100,4.61,US,1729883481
208,praia,14.9215,-23.5087,82.94,57,0,10.36,CV,1729883547
209,bengkulu,-3.8004,102.2655,75.72,88,98,3.09,ID,1729883348
210,xilin hot,43.9667,116.0333,46.99,76,100,6.98,CN,1729883549
211,al kharijah,25.4514,30.5464,68.27,25,0,7.72,EG,1729883550
212,luanda,-8.8368,13.2343,78.8,73,75,6.91,AO,1729883531
213,ishim,56.1128,69.4902,41.68,86,100,6.67,RU,1729883553
214,paraibano,-6.4331,-43.9836,100.67,20,96,9.53,BR,1729883554
215,la passe,45.5549,-0.8967,56.25,91,100,5.86,FR,1729883361
216,vadso,70.0744,29.7487,48.36,76,0,28.77,NO,1729883558
217,scottburgh,-30.2867,30.7532,65.79,79,100,12.41,ZA,1729883559
218,lae,-6.7221,146.9847,72.9,86,100,6.29,PG,1729883560
219,suva,-18.1416,178.4415,76.48,100,75,2.3,FJ,1729883561
220,algona,43.07,-94.233,59.09,36,0,18.41,US,1729883267
221,qiqihar,47.3408,123.9672,36.25,52,100,5.88,CN,1729883563
222,iskateley,67.6803,53.1512,31.01,76,17,5.46,RU,1729883565
223,srivardhan,18.0333,73.0167,78.03,71,87,5.57,IN,1729883567
224,trairi,-3.2778,-39.2689,81.32,63,100,14.97,BR,1729883485
225,envira,-7.3,-70.2167,96.8,36,100,2.57,BR,1729883476
226,araioses,-2.89,-41.9031,85.98,66,0,20.71,BR,1729883571
227,codrington,-38.2667,141.9667,38.84,89,13,9.66,AU,1729883572
228,barela,23.1,80.05,70.05,80,61,3.2,IN,1729883573
229,conceicao da barra,-18.5933,-39.7322,80.78,73,91,17.11,BR,1729883574
230,sevastopol,44.6,33.5333,51.01,53,100,1.99,UA,1729883575
231,gambela,8.25,34.5833,74.55,85,61,3.67,ET,1729883576
232,flying fish cove,-10.4217,105.6791,76.68,83,40,8.05,CX,1729883577
233,ta`u,-14.2336,-169.5144,80.85,84,98,21.16,AS,1729883579
234,alotau,-10.3069,150.4462,75.36,94,98,0.94,PG,1729883580
235,sao tome,0.3365,6.7273,79.18,85,100,7.29,ST,1729883581
236,usogorsk,63.4106,48.6872,36.27,70,100,5.21,RU,1729883582
237,vernon,50.2581,-119.2691,41.45,70,100,1.01,CA,1729883376
238,maxixe,-23.8597,35.3472,74.3,92,0,5.12,MZ,1729883585
239,al kharj,24.155,47.3346,72.18,38,0,10.89,SA,1729883586
240,puerto deseado,-47.7503,-65.8938,60.01,30,100,20.4,AR,1729883308
241,seybaplaya,19.65,-90.6667,87.26,64,91,10.38,MX,1729883589
242,tocoa,15.6833,-86.0,83.82,73,72,4.72,HN,1729883591
243,vicosa do ceara,-3.5622,-41.0922,90.25,24,6,8.75,BR,1729883592
244,yatou,37.15,122.3833,54.21,80,4,4.25,CN,1729883594
245,sungailiat,-1.85,106.1333,78.15,88,100,6.78,ID,1729883595
246,borogontsy,62.6683,131.1683,6.12,86,100,10.2,RU,1729883597
247,diamantino,-14.4086,-56.4461,79.0,73,100,7.87,BR,1729883598
248,kerema,-7.9631,145.7785,75.45,96,100,9.24,PG,1729883600
249,calama,-22.4667,-68.9333,77.49,4,0,20.71,CL,1729883601
250,sinop,41.7711,34.8709,45.9,94,67,2.44,TR,1729883603
251,kwekwe,-18.9281,29.8149,81.84,31,100,3.18,ZW,1729883604
252,kudahuvadhoo,2.6708,72.8944,82.62,72,6,14.23,MV,1729883605
253,polyarnyy,69.1989,33.4478,45.91,80,100,22.08,RU,1729883606
254,shishgarh,28.7167,79.3167,72.18,76,0,7.72,IN,1729883607
255,xai-xai,-25.0519,33.6442,73.58,85,0,7.83,MZ,1729883609
256,murzuq,25.9155,13.9184,71.01,27,6,9.06,LY,1729883610
257,muynoq,43.7683,59.0214,55.99,71,100,4.21,UZ,1729883611
258,gurupi,-11.7292,-49.0686,86.7,55,100,0.51,BR,1729883556
259,pisco,-13.7,-76.2167,68.05,77,0,11.5,PE,1729883613
260,solnechnyy,50.7214,136.6319,27.07,58,0,4.72,RU,1729883614
261,salekhard,66.53,66.6019,16.57,95,65,7.31,RU,1729883615
262,sherwood park,53.5168,-113.3187,46.71,42,20,10.36,CA,1729883491
263,hobyo,5.3505,48.5268,78.55,86,78,12.66,SO,1729883618
264,minas de marcona,-15.2119,-75.1103,67.06,55,4,18.99,PE,1729883619
265,qarah zia' od din,38.8915,45.0255,50.11,39,96,4.09,IR,1729883620
266,lockwood,45.8191,-108.4149,52.41,49,75,0.0,US,1729883622
267,tralee,52.2704,-9.7026,52.16,89,73,10.45,IE,1729883623
268,bubaque,11.2833,-15.8333,82.26,74,18,6.69,GW,1729883624
269,whakatane,-37.9585,176.9854,64.51,97,100,8.01,NZ,1729883625
270,happy valley-goose bay,53.3168,-60.3315,41.31,52,20,8.05,CA,1729883626
271,shushtar,32.0455,48.8567,66.42,19,100,5.23,IR,1729883628
272,itaituba,-4.2761,-55.9836,96.96,49,20,9.22,BR,1729883629
273,sorong,-0.8833,131.25,79.41,84,100,8.84,ID,1729883630
274,maqat,47.65,53.3167,51.12,59,100,9.01,KZ,1729883632
275,talitsy,56.5289,42.3344,41.02,71,100,5.48,RU,1729883634
276,sinabang,2.4803,96.3801,78.76,81,90,3.06,ID,1729883635
277,bethanie,-26.4833,17.15,79.29,11,5,6.69,NA,1729883636
278,kapa'a,22.0752,-159.319,80.92,83,20,8.05,US,1729883470
279,fort st. john,56.2499,-120.8529,39.09,52,40,9.22,CA,1729883638
280,severo-yeniseyskiy,60.3725,93.0408,31.23,99,100,2.37,RU,1729883639
281,uray,60.1247,64.7758,39.07,90,100,3.27,RU,1729883641
282,ketchikan,55.3422,-131.6461,46.38,76,0,0.0,US,1729883643
283,antofagasta,-23.65,-70.4,61.79,76,26,8.05,CL,1729883572
284,egilsstadir,65.2653,-14.3948,48.11,71,75,11.5,IS,1729883645
285,carbonear,47.7332,-53.2148,66.24,99,100,22.35,CA,1729883461
286,badger,64.8,-147.5333,13.35,85,75,0.0,US,1729883648
287,puerto berrio,6.4916,-74.4033,94.73,49,58,1.99,CO,1729883649
288,ad dawadimi,24.5077,44.3924,67.35,48,0,18.45,SA,1729883650
289,devrekani,41.603,33.8392,39.6,92,62,3.94,TR,1729883651
290,trincomalee,8.5711,81.2335,81.0,79,100,16.71,LK,1729883428
291,isfahan,32.6572,51.6776,40.64,15,0,1.97,IR,1729883654
292,vail,32.0479,-110.712,91.2,8,0,7.0,US,1729883655
293,klyavlino,54.2649,52.0267,39.74,86,100,3.8,RU,1729883656
294,shingu,33.7333,135.9833,69.85,92,100,7.56,JP,1729883657
295,saint-pierre,-21.3393,55.4781,73.08,78,75,6.91,RE,1729883658
296,umatilla,45.5001,-118.5014,51.33,43,0,5.82,US,1729883660
297,vennesla,58.2694,7.9741,49.42,97,75,3.44,NO,1729883413
298,kabare,-2.4683,28.8242,63.54,97,100,4.12,CD,1729883662
299,hauterive,46.0901,3.4459,58.78,78,100,6.46,FR,1729883663
300,freetown,8.484,-13.2299,80.31,83,40,11.5,SL,1729883664
301,cochrane,51.1834,-114.4687,45.64,34,0,10.36,CA,1729883665
302,asmara,15.3333,38.9333,61.77,72,92,5.75,ER,1729883666
303,gulf breeze,30.3571,-87.1639,84.94,54,0,8.05,US,1729883357
304,siena,43.2167,11.4,63.18,99,99,2.95,IT,1729883669
305,kolonia,50.9333,6.95,61.03,86,0,5.75,DE,1729883670
306,vila velha,-20.3297,-40.2925,84.15,77,40,20.71,BR,1729883538
307,port augusta,-32.5,137.7667,59.32,33,100,5.3,AU,1729883672
308,tromso,69.6496,18.957,41.02,81,75,21.85,NO,1729883673
309,mil'kovo,55.6078,37.7956,43.34,80,23,4.27,RU,1729883675
310,kasangulu,-4.5911,15.1708,75.22,84,54,3.62,CD,1729883676
311,arafat,39.0344,44.6198,39.97,48,44,4.61,IR,1729883677
312,garoowe,8.4054,48.4845,82.71,60,99,11.32,SO,1729883678
313,hithadhoo,-0.6,73.0833,82.08,70,4,7.0,MV,1729883679
314,kansanshi,-12.0951,26.4273,68.99,64,84,1.86,ZM,1729883681
315,susuman,62.7833,148.1667,4.68,96,100,3.89,RU,1729883682
316,kalemie,-5.9475,29.1947,75.97,70,43,4.05,CD,1729883683
317,punta arenas,-53.15,-70.9167,50.11,57,40,35.68,CL,1729883423
318,bonthe,7.5264,-12.505,79.14,87,88,6.85,SL,1729883685
319,sitka,57.0531,-135.33,46.29,61,0,10.36,US,1729883687
320,krasnoshchekovo,51.6708,82.7289,50.52,69,100,15.68,RU,1729883688
321,sirjan,29.452,55.6814,63.61,52,4,2.75,IR,1729883689
322,sovetsk,55.0839,21.8785,44.94,58,0,7.52,RU,1729883690
323,goure,13.9835,10.2704,87.46,13,100,8.75,NE,1729883691
324,sibut,5.718,19.0739,73.92,91,100,2.39,CF,1729883693
325,boda,4.3189,17.4695,72.46,95,100,1.97,CF,1729883694
326,kirensk,57.7853,108.1119,32.43,93,100,9.1,RU,1729883695
327,kuje,8.8796,7.2272,77.41,88,20,2.3,NG,1729883696
328,ayorou,14.7308,0.9174,93.49,11,6,9.1,NE,1729883565
329,dhi as sufal,13.8345,44.1147,65.12,75,100,4.5,YE,1729883698
330,mukalla,14.5425,49.1242,81.32,78,43,6.85,YE,1729883700
331,belaya kholunitsa,58.84,50.8528,37.63,74,100,6.13,RU,1729883701
332,mrakovo,52.7161,56.6244,40.5,86,100,2.51,RU,1729883702
333,porto novo,6.4965,2.6036,80.42,88,100,4.99,BJ,1729883703
334,vilyuchinsk,52.9306,158.4028,34.07,78,9,10.16,RU,1729883704
335,ciudad hidalgo,19.6833,-100.5667,72.34,32,0,3.8,MX,1729883685
336,namtsy,62.7161,129.6658,7.32,82,25,13.62,RU,1729883707
337,alofi,-19.0595,-169.9187,76.53,80,99,19.8,NU,1729883708
338,iron river,46.0927,-88.6423,49.6,47,6,13.96,US,1729883709
339,trondheim,63.4305,10.3951,40.91,88,68,7.96,NO,1729883710
340,dzhangala,49.2167,50.3333,46.65,66,100,5.57,KZ,1729883711
341,chincha alta,-13.4099,-76.1323,69.64,72,26,8.34,PE,1729883712
342,nar'yan-mar,67.6713,53.087,31.01,76,18,5.5,RU,1729883714
343,hericourt,47.5731,6.7614,53.58,88,100,3.65,FR,1729883715
344,saint-louis,16.3333,-15.0,96.03,24,10,8.9,SN,1729883716
345,kingston,17.997,-76.7936,83.16,87,61,0.31,JM,1729883717
346,samus',56.7475,84.6992,43.23,86,100,11.23,RU,1729883719
347,amos,48.5669,-78.1162,46.47,77,100,12.26,CA,1729883701
348,hun,29.1268,15.9477,70.48,36,1,10.76,LY,1729883721
349,goba,7.0167,39.9833,53.67,92,100,1.68,ET,1729883722
350,tazovsky,67.4667,78.7,10.85,96,43,7.76,RU,1729883724
351,grand gaube,-20.0064,57.6608,75.38,88,89,5.01,MU,1729883725
352,la'ie,21.6477,-157.9253,85.96,79,60,5.99,US,1729883473
353,mont-dore,-22.2833,166.5833,72.01,82,100,4.29,NC,1729883728
354,choyr,46.3611,108.3611,29.89,62,32,6.46,MN,1729883729
355,rongelap,11.1635,166.8941,83.53,77,71,15.5,MH,1729883732
356,male,4.1748,73.5089,84.15,79,75,12.66,MV,1729883733
357,barah,13.7,30.3667,84.65,11,0,13.87,SD,1729883735
358,puerto quijarro,-17.7833,-57.7667,101.01,29,100,5.08,BO,1729883736
359,savannakhet,16.566,104.751,67.8,50,100,3.67,LA,1729883737
360,rikaze,29.25,88.8833,42.89,38,0,2.17,CN,1729883738
361,haiku-pauwela,20.9219,-156.3051,77.02,80,75,13.0,US,1729883739
362,brisas de zicatela,15.8369,-97.0419,86.52,84,20,6.91,MX,1729883741
363,madera,37.1666,-119.8343,86.14,34,98,4.56,US,1729883702
364,kununurra,-15.7667,128.7333,80.58,74,85,0.0,AU,1729883743
365,bayganin,48.6947,55.8742,47.52,57,100,4.68,KZ,1729883744
366,arraial do cabo,-22.9661,-42.0278,84.16,65,75,5.75,BR,1729883745
367,ust-tsilma,65.441,52.1498,33.26,79,96,2.8,RU,1729883746
368,new london,41.4834,-72.0662,61.86,53,0,11.5,US,1729883748
369,mount gambier,-37.8333,140.7667,38.77,78,75,5.1,AU,1729883749
370,kisangani,0.5167,25.2,75.34,84,100,1.99,CD,1729883750
371,kirakira,-10.4544,161.9205,77.72,87,8,7.36,SB,1729883751
372,sun prairie,43.1836,-89.2137,60.96,56,75,13.8,US,1729883752
373,ngorongoro,-3.2397,35.4875,60.12,72,83,4.12,TZ,1729883754
374,airway heights,47.6446,-117.5933,48.11,57,75,11.5,US,1729883755
375,hami,42.8,93.45,50.74,41,0,1.68,CN,1729883756
376,sosnogorsk,63.6023,53.8817,32.38,79,100,5.99,RU,1729883757
377,uva,56.9908,52.1852,39.27,95,100,7.0,RU,1729883758
378,lospalos,-8.5186,127.0025,71.91,96,5,2.8,TL,1729883760
379,marka,1.7159,44.7717,78.22,85,99,11.05,SO,1729883761
380,sambava,-14.2667,50.1667,74.14,91,33,8.55,MG,1729883751
381,terrace,54.5163,-128.6035,42.71,70,75,24.16,CA,1729883763
382,timbuktu,16.7735,-3.0074,91.92,17,100,10.27,ML,1729883765
383,limon,10.0,-83.0333,84.09,79,0,4.61,CR,1729883767
384,ballina,-28.8667,153.5667,62.58,79,96,9.08,AU,1729883768
385,itacare,-14.2775,-38.9967,79.32,71,99,9.91,BR,1729883710
386,charters towers,-20.1,146.2667,68.5,90,0,5.79,AU,1729883770
387,juneau,58.3019,-134.4197,38.41,97,75,0.0,US,1729883772
388,wickenburg,33.9686,-112.7296,88.99,12,0,4.0,US,1729883773
389,kuta,-8.7233,115.1723,78.75,94,40,5.75,ID,1729883774
390,iskushuban,10.2837,50.23,79.7,75,49,12.15,SO,1729883775
391,saint-georges,12.0564,-61.7485,87.48,70,20,17.27,GD,1729883776
392,touros,-5.1989,-35.4608,80.1,64,100,14.56,BR,1729883777
393,qingyuan,23.7,113.0333,65.95,58,100,8.93,CN,1729883779
394,amga,60.8953,131.9608,11.57,89,100,11.21,RU,1729883780
395,ceeldheer,3.8488,47.1806,78.33,84,18,10.8,SO,1729883781
396,vila franca do campo,37.7167,-25.4333,64.89,99,33,6.46,PT,1729883782
397,dadukou,26.5479,101.7054,67.62,86,28,1.21,CN,1729883783
398,margate,51.3813,1.3862,56.88,86,99,6.04,GB,1729883785
399,marsh harbour,26.5412,-77.0636,78.49,68,4,13.35,BS,1729883786
400,sechura,-5.5569,-80.8222,77.4,56,32,15.14,PE,1729883787
401,amuntai,-2.4177,115.2494,73.83,98,81,0.74,ID,1729883789
402,carloforte,39.145,8.3058,69.06,85,98,15.88,IT,1729883791
403,grevena,40.0845,21.4274,51.91,66,12,2.66,GR,1729883792
404,glace bay,46.1969,-59.957,49.96,98,100,28.77,CA,1729883793
405,nuku'alofa,-21.1333,-175.2,74.95,78,94,18.99,TO,1729883794
406,saint-francois,46.4154,3.9054,60.67,88,100,3.44,FR,1729883796
407,longquan,24.6719,102.1613,61.41,91,6,2.42,CN,1729883797
408,ambon,-3.6954,128.1814,84.97,95,40,5.75,ID,1729883505
409,thames,-37.1333,175.5333,63.79,84,100,7.94,NZ,1729883799
410,namdrik,5.5994,168.1028,83.89,69,3,9.82,MH,1729883800
411,colonia,50.9333,6.95,61.03,86,0,5.75,DE,1729883670
412,khark,29.2614,50.3306,77.79,37,100,16.73,IR,1729883805
413,villa emilio carranza,19.9667,-96.6,79.65,71,3,7.16,MX,1729883807
414,ceerigaabo,10.6162,47.368,68.09,69,47,5.66,SO,1729883808
415,armacao de buzios,-22.7469,-41.8817,84.36,68,100,4.97,BR,1729883809
416,kruisfontein,-34.0033,24.7314,55.83,78,4,8.93,ZA,1729883810
417,pacific grove,36.6177,-121.9166,70.41,81,0,8.01,US,1729883811
418,puerto armuelles,8.2833,-82.8667,82.09,75,83,1.01,PA,1729883812
419,bilicenii vechi,47.6564,28.0472,48.9,45,7,1.52,MD,1729883814
420,ibb,13.9667,44.1833,66.24,72,100,3.51,YE,1729883815
421,kushiro,42.975,144.3747,50.95,87,5,8.05,JP,1729883817
422,gobabis,-22.45,18.9667,75.6,8,0,8.99,NA,1729883818
423,aasiaat,68.7098,-52.8699,26.28,73,90,8.32,GL,1729883820
424,luquillo,18.3725,-65.7166,90.09,79,75,9.22,PR,1729883821
425,cabo san lucas,22.8909,-109.9124,93.51,64,0,4.61,MX,1729883631
426,palmer,42.1584,-72.3287,62.22,33,20,5.75,US,1729883823
427,kuqa,41.7278,82.9364,52.21,34,0,7.11,CN,1729883824
428,al badari,26.9926,31.4155,72.03,14,0,11.16,EG,1729883825
429,constantia,44.1833,28.65,45.28,54,0,2.95,RO,1729883646
430,huarmey,-10.0681,-78.1522,70.99,71,6,11.72,PE,1729883829
431,kattivakkam,13.2167,80.3167,84.29,94,69,8.81,IN,1729883830
432,katsuura,35.1333,140.3,70.72,75,100,14.29,JP,1729883831
433,upington,-28.4478,21.2561,72.25,8,0,8.39,ZA,1729883832
434,palikir - national government center,6.9248,158.1611,83.59,66,97,5.17,FM,1729883834
435,beawar,26.1,74.3167,76.93,31,0,6.87,IN,1729883835
436,princeville,45.7668,-61.2985,50.54,92,100,20.71,CA,1729883836
437,callao,-12.0667,-77.15,66.49,72,100,10.36,PE,1729883539
438,huesca,42.1362,-0.4087,54.28,89,75,3.44,ES,1729883838
439,lasem,-6.6922,111.4527,78.28,82,0,7.38,ID,1729883839
440,elin pelin,42.6667,23.6,48.02,76,5,5.75,BG,1729883841
441,cowra,-33.8333,148.6833,35.31,59,0,3.09,AU,1729883842
442,smithers,54.7804,-127.1743,35.92,80,40,4.61,CA,1729883844
443,letlhakeng,-24.0944,25.0298,81.45,11,0,3.96,BW,1729883845
444,yarmouth,41.7057,-70.2286,55.98,66,0,7.0,US,1729883846
445,ha'il,27.5219,41.6907,59.02,44,40,11.5,SA,1729883848
446,graaff-reinet,-32.2522,24.5308,60.93,61,0,8.72,ZA,1729883563
447,nelson bay,-32.7167,152.15,61.09,55,63,10.0,AU,1729883851
448,bluefields,12.0137,-83.7635,77.07,100,40,4.61,NI,1729883852
449,saguenay,48.4168,-71.0657,47.23,60,40,3.44,CA,1729883701
450,rosetta,31.4044,30.4164,72.01,57,0,12.97,EG,1729883855
451,san rafael del sur,11.8485,-86.4384,88.7,62,61,12.5,NI,1729883856
452,yangjiang,21.85,111.9667,72.72,58,100,9.22,CN,1729883857
453,sao vicente,-23.9631,-46.3919,92.98,29,0,9.22,BR,1729883835
454,biskra,34.8504,5.7281,76.51,41,20,5.75,DZ,1729883859
455,koungheul,13.9833,-14.8,90.66,38,100,3.91,SN,1729883860
456,celestun,20.8667,-90.4,83.1,60,8,11.18,MX,1729883862
457,buta,2.7858,24.73,73.89,95,100,2.3,CD,1729883863
458,chul'man,56.8479,124.9104,5.65,98,99,2.93,RU,1729883864
459,haifa,32.8156,34.9892,64.17,45,0,10.92,IL,1729883731
460,howard springs,-12.497,131.047,78.71,88,100,3.04,AU,1729883866
461,homer,59.6425,-151.5483,37.29,71,100,9.22,US,1729883868
462,arkhara,49.4212,130.0842,26.11,80,4,5.41,RU,1729883869
463,howrah,22.5892,88.3103,78.8,94,100,9.22,IN,1729883870
464,geraldton,-28.7667,114.6,61.21,82,100,9.22,AU,1729883874
465,yeniseysk,58.4497,92.1703,36.09,99,100,4.79,RU,1729883875
466,timmins,48.4669,-81.3331,46.22,93,100,4.61,CA,1729883742
467,playa del ingles,27.7567,-15.5787,73.15,77,14,7.9,ES,1729883713
468,st. john's,47.5649,-52.7093,63.16,99,100,20.71,CA,1729883878
469,chengde,40.9725,117.9361,49.78,84,95,1.28,CN,1729883879
470,pierre,44.3683,-100.351,56.28,40,20,5.75,US,1729883881
471,palmas,-10.2128,-48.3603,96.67,38,20,8.05,BR,1729883754
472,peel,-33.3167,149.6333,34.66,94,0,2.95,AU,1729883883
473,sydney,-33.8679,151.2073,56.71,57,75,17.27,AU,1729883698
474,tal,35.4791,72.2439,45.55,52,4,5.26,PK,1729883885
475,evanston,42.0411,-87.6901,67.1,55,20,13.8,US,1729883761
476,luderitz,-26.6481,15.1594,60.55,64,100,21.7,NA,1729883888
477,yelizovo,53.1873,158.3805,33.94,60,0,6.71,RU,1729883889
478,honavar,14.2833,74.45,76.6,90,100,3.18,IN,1729883890
479,mildura,-34.2,142.15,48.07,66,100,8.97,AU,1729883891
480,chernyshevskiy,63.0128,112.4714,11.1,98,100,2.48,RU,1729883892
481,taoudenni,22.6783,-3.9836,84.56,22,0,8.48,ML,1729883893
482,pico truncado,-46.7949,-67.9573,62.76,21,100,28.9,AR,1729883895
483,sangmelima,2.9333,11.9833,70.27,98,100,3.02,CM,1729883896
484,gizo,-8.103,156.8419,81.9,79,68,11.48,SB,1729883897
485,pacasmayo,-7.4006,-79.5714,69.71,71,13,14.85,PE,1729883898
486,kralendijk,12.15,-68.2667,89.58,66,40,20.71,BQ,1729883837
487,mandera,3.9366,41.867,91.17,38,64,11.12,KE,1729883803
488,pangody,65.85,74.4859,22.91,96,98,8.66,RU,1729883902
489,laojunmiao,39.8333,97.7333,43.03,47,100,1.32,CN,1729883903
490,bereeda,11.8704,51.0579,80.11,82,10,12.01,SO,1729883904
491,yulinshi,38.2906,109.7494,53.6,59,100,12.19,CN,1729883905
492,jakar,27.5492,90.7525,48.81,97,100,1.95,BT,1729883907
493,viedma,-40.8135,-62.9967,61.03,22,5,16.33,AR,1729883908
494,remire-montjoly,4.9167,-52.2667,77.04,94,75,5.75,GF,1729883909
495,bismarck,46.8083,-100.7837,56.86,39,0,9.22,US,1729883782
496,rabo de peixe,37.8,-25.5833,63.99,99,18,7.49,PT,1729883911
497,mundo novo,-11.8589,-40.4725,88.0,37,95,6.55,BR,1729883912
498,port douglas,-16.4833,145.4667,75.0,83,66,6.64,AU,1729883914
499,mermoz boabab,14.7065,-17.4758,83.98,89,0,4.61,SN,1729883915
500,mahina,-17.5065,-149.489,80.37,69,75,5.75,PF,1729883916
501,kulachi,31.9286,70.4592,82.15,24,0,2.84,PK,1729883917
502,jawf al maqbabah,13.8378,45.8349,74.21,83,56,7.47,YE,1729883918
503,lata,40.1629,-8.3327,47.53,87,8,1.68,PT,1729883919
504,seka,17.9285,103.9552,72.16,68,98,5.17,TH,1729883921
505,carlsbad,33.1581,-117.3506,82.62,59,0,9.22,US,1729883298
506,al ghayzah,16.2079,52.176,81.63,76,41,8.5,YE,1729883924
507,saint-denis-en-val,47.8732,1.966,57.11,95,0,1.14,FR,1729883925
508,salinopolis,-0.6136,-47.3561,82.69,69,4,15.01,BR,1729883926
509,west lafayette,40.4259,-86.9081,66.31,66,75,9.22,US,1729883796
510,tazacorte,28.629,-17.9293,70.77,90,20,12.66,ES,1729883928
511,ponoka,52.6768,-113.5815,44.89,39,6,11.5,CA,1729883929
512,sao joao da barra,-21.6403,-41.0511,86.09,86,93,22.55,BR,1729883931
513,saint-philippe,-21.3585,55.7679,73.49,89,100,14.63,RE,1729883932
514,camarinas,43.1311,-9.1817,52.93,71,100,13.38,ES,1729883933
515,genhe,50.7833,121.5167,18.19,98,69,1.59,CN,1729883934
516,shache,38.4167,77.2406,54.0,23,20,4.72,CN,1729883935
517,richards bay,-28.783,32.0377,68.04,91,100,11.74,ZA,1729883936
518,santa cruz de bezana,43.4437,-3.9032,53.8,98,100,4.61,ES,1729883938
519,chulym,55.0997,80.9572,44.67,75,63,15.95,RU,1729883939
520,buraydah,26.326,43.975,63.05,44,100,11.88,SA,1729883940
521,buenavista del norte,28.3746,-16.861,72.27,72,0,17.96,ES,1729883941
522,yangambi,0.8102,24.4336,74.62,85,97,1.77,CD,1729883942
523,ebaye,8.7748,167.7392,84.22,74,100,6.91,MH,1729883943
524,danja,11.3764,7.5625,76.08,31,100,5.95,NG,1729883945
525,guelmim,28.987,-10.0574,67.95,60,4,10.92,MA,1729883946
526,linxia chengguanzhen,35.6003,103.2064,41.11,72,100,3.71,CN,1729883947
527,namibe,-15.1961,12.1522,67.62,82,77,4.99,AO,1729883948
528,san antonio de pale,-1.4014,5.6325,77.45,83,100,13.91,GQ,1729883949
529,pionerskiy,54.9508,20.2275,42.64,56,0,12.97,RU,1729883951
530,al mayadin,35.0209,40.4535,67.24,19,10,5.46,SY,1729883952
531,santa cruz,-17.8,-63.1667,92.66,58,20,17.27,BO,1729883848
532,verkhnevilyuysk,63.4453,120.3167,-0.2,100,99,2.42,RU,1729883954
533,akobo,7.4344,3.9497,73.44,96,76,3.18,NG,1729883955
534,ashmyany,54.425,25.9378,42.24,87,3,4.05,BY,1729883958
535,talara,-4.5772,-81.2719,75.96,64,0,19.57,PE,1729883959
536,tsiombe,-25.3,45.4833,71.69,74,6,4.29,MG,1729883960
537,cozumel,20.5083,-86.9458,84.94,89,75,4.61,MX,1729883963
538,bahia de caraquez,-0.6,-80.4167,78.89,70,35,14.56,EC,1729883964
539,labrador city,52.9463,-66.9114,42.19,46,40,65.99,CA,1729883965
540,baniyas,35.1819,35.9487,59.29,27,0,5.3,SY,1729883966
541,mhamid,29.82,-5.72,78.8,23,12,0.81,MA,1729883968
542,kiunga,-6.1219,141.2906,72.05,91,98,2.28,PG,1729883969
543,amayuca,18.7,-98.7667,79.25,46,5,4.76,MX,1729883970
544,santiago,-33.4569,-70.6483,77.43,34,0,5.75,CL,1729883687
545,khartoum,15.5518,32.5324,88.18,9,7,16.75,SD,1729883680
546,kindu,-2.95,25.95,74.01,87,100,7.05,CD,1729883974
547,ubiaja,6.655,6.3869,74.32,89,96,2.33,NG,1729883975
548,el calafate,-50.3408,-72.2768,49.48,62,100,22.77,AR,1729883976
549,sant'agata di militello,38.0679,14.6327,70.39,75,100,3.96,IT,1729883977
550,ust'-ilimsk,58.0006,102.6619,36.82,98,100,6.6,RU,1729883978
551,balabac,7.9868,117.0645,80.82,81,100,16.55,PH,1729883980
552,dryden,49.7833,-92.7503,44.89,65,75,10.36,CA,1729883981
553,manokwari,-0.8667,134.0833,79.02,78,100,3.2,ID,1729883982
554,midvagur,62.0511,-7.1939,47.23,76,100,23.02,FO,1729883983
555,preston,53.7667,-2.7167,58.82,93,100,4.65,GB,1729883985
556,bara,10.3744,10.7288,81.36,35,97,3.76,NG,1729883986
557,caconda,-13.7333,15.0667,72.12,53,93,9.69,AO,1729883987
558,takoradi,4.8845,-1.7554,78.49,90,100,7.9,GH,1729883988
559,sur,22.5667,59.5289,82.42,52,4,7.11,OM,1729883989
560,richfield,44.8833,-93.283,58.23,48,20,13.8,US,1729883991
561,bay city,43.5945,-83.8889,56.05,82,100,13.8,US,1729883804
562,burnie,-41.0667,145.9167,44.15,81,8,8.61,AU,1729883993
563,ornskoldsvik,63.2909,18.7153,41.95,87,0,8.05,SE,1729883994
564,lionel town,17.8101,-77.2406,88.47,66,26,11.7,JM,1729883995
565,kananga,-5.8958,22.4178,76.5,70,100,2.77,CD,1729883997
566,praia da vitoria,38.7333,-27.0667,64.65,68,40,9.62,PT,1729883998
567,ouled mimoun,34.9047,-1.0339,66.69,64,9,1.81,DZ,1729883703
568,mundri,-6.9558,111.71,77.86,81,9,3.36,ID,1729884001
569,lompoc,34.6391,-120.4579,81.14,46,7,3.0,US,1729884002
570,krasnopavlivka,49.1372,36.3272,48.49,81,100,9.37,UA,1729884004
571,yacimiento rio turbio,-51.5732,-72.3508,38.59,76,100,32.21,AR,1729884005
572,kyzyl-suu,42.3414,78.0056,47.1,38,100,12.57,KG,1729883763
573,humaita,-7.5061,-63.0208,103.78,25,100,1.36,BR,1729884007
574,akure,7.2526,5.1931,73.98,93,98,1.59,NG,1729884008
575,south venice,27.0531,-82.4243,88.03,54,81,1.01,US,1729884011
576,kuvandyk,51.4781,57.3552,40.64,82,78,2.19,RU,1729884012
577,roshchino,60.2519,29.6085,49.1,87,24,11.23,RU,1729884013
578,paramirim,-13.4425,-42.2389,86.18,48,100,12.19,BR,1729884014
579,salalah,17.0151,54.0924,80.69,89,75,3.44,OM,1729884016
